[
  {
    "name": "Csesznek Via Ferrata",
    "lat": 47.3545,
    "lng": 17.8795,
    "type": "via-ferrata",
    "description": "Hungary's first via ferrata (2013) with 5 routes (B–F difficulty) in the Kőmosó valley below Csesznek Castle.",
    "address": "Csesznek, Bakony Mountains",
    "website": "https://www.vasaltutak.hu/csesznek.php",
    "image": "images/csesznek-via-ferrata.jpg",
    "difficulty": "B–F"
  },
  {
    "name": "Mór Via Ferrata",
    "lat": 47.3722,
    "lng": 18.2095,
    "type": "via-ferrata",
    "description": "3 routes (B–D) in a former quarry between Mór and Csókakő, with two Vietnam-style suspension bridges.",
    "address": "Mór, Vértes Mountains",
    "website": "https://www.vasaltutak.hu/mor.php",
    "image": "images/mor-via-ferrata.jpg",
    "difficulty": "B–D"
  },
  {
    "name": "Tatabánya Via Ferrata",
    "lat": 47.5695,
    "lng": 18.412,
    "type": "via-ferrata",
    "description": "Via ferrata routes in the scenic Kőhegy park with multiple difficulty levels and picnic areas.",
    "address": "Tatabánya, Kőhegy",
    "website": "https://www.vasaltutak.hu/tatabanya.php",
    "image": "images/tatabanya-kohegy.jpg",
    "difficulty": "B–D"
  },
  {
    "name": "Esztramos Nagy-fal Via Ferrata",
    "lat": 48.4385,
    "lng": 20.732,
    "type": "via-ferrata",
    "description": "6 routes (B–E) on the Great Wall of Esztramos Hill, including the challenging Babel route with a rope bridge.",
    "address": "Esztramos Hill, Borsod-Abaúj-Zemplén",
    "website": "https://www.viaferratainfo.hu/esztramos-via-ferrata/",
    "image": "images/esztramos-via-ferrata.jpg",
    "difficulty": "B–E"
  },
  {
    "name": "Tengerszem Via Ferrata (Édes Vizi Élet)",
    "lat": 48.3379,
    "lng": 21.58,
    "type": "via-ferrata",
    "description": "D-level route with bridges over an artificial lake in a former quarry. Part of the Megyer-hegy via ferrata complex.",
    "address": "Megyer-hegy, Borsod-Abaúj-Zemplén",
    "website": "https://www.viaferratainfo.hu/megyerhegyi-tengerszem/",
    "image": "images/tengerszem-via-ferrata.jpg",
    "difficulty": "D"
  },
  {
    "name": "Cuha-völgy Via Ferrata",
    "lat": 47.312,
    "lng": 17.927,
    "type": "via-ferrata",
    "description": "Via ferrata routes in the scenic Cuha Valley of the Bakony Mountains.",
    "address": "Cuha-völgy, Bakony Mountains",
    "website": "https://www.vasaltutak.hu/cuhavolgy.php",
    "image": "images/cuha-volgy-via-ferrata.jpg",
    "difficulty": "B–C"
  },
  {
    "name": "Spider Club",
    "lat": 47.53563,
    "lng": 19.04183,
    "type": "gym",
    "description": "Hungary's largest indoor climbing hall with 1360 m² of walls, top rope, lead climbing, and a boulder hall.",
    "address": "1036 Budapest, Fényes Adolf u. 19-21.",
    "website": "https://www.spiderclub.hu",
    "image": "images/spiderClub.jpg",
    "difficulty": "4a–8a"
  },
  {
    "name": "Monkey Boulder",
    "lat": 47.55679,
    "lng": 19.04793,
    "type": "gym",
    "description": "800 m² bouldering gym with 100+ routes, 25 large elements, campus board, and fingerboard training area.",
    "address": "1033 Budapest, Szentendrei út 89-95. (PP Center, csarnok 53)",
    "website": "https://monkeyboulder.hu",
    "image": "images/monkeyBoulder.jpg",
    "difficulty": "V0–V8"
  },
  {
    "name": "Boulder Academy Budapest (BAB)",
    "lat": 47.47088,
    "lng": 19.08414,
    "type": "gym",
    "description": "One of Hungary's largest climbing halls with 200+ routes and 650 m² of wall surface in the Lurdy Ház.",
    "address": "1097 Budapest, Könyves Kálmán körút 12-14. (Lurdy Ház)",
    "website": "https://www.boulderacademy.hu",
    "image": "images/BAB.jpg",
    "difficulty": "4a–7c+"
  },
  {
    "name": "Mountex Boulder",
    "lat": 47.52066,
    "lng": 19.06194,
    "type": "gym",
    "description": "Hungary's first bouldering gym (since 2002), centrally located near Lehel tér with 100+ routes.",
    "address": "1134 Budapest, Váci út 19.",
    "website": "https://old.mountex.hu/boulder-eng",
    "image": "images/mountexBoulder.jpg",
    "difficulty": "V0–V7"
  },
  {
    "name": "Gravity Boulder Bar",
    "lat": 47.50862,
    "lng": 19.02589,
    "type": "gym",
    "description": "Modern boulder gym located in Mammut 1 shopping center with unique boulder bar concept.",
    "address": "1024 Budapest, Lövőház u. 2-6. (Mammut 1, 3rd floor)",
    "website": "https://gravitybudapest.com",
    "image": "images/gravityBoulder.jpg",
    "difficulty": "V0–V8"
  },
  {
    "name": "Flow Boulder",
    "lat": 47.46017,
    "lng": 19.05119,
    "type": "gym",
    "description": "1200 m² sunny bouldering gym in Újbuda with 100+ boulders and 10 trainers. New routes every week.",
    "address": "1117 Budapest, Hengermalom út 19-21. (Újbuda Center)",
    "website": "https://www.flowboulder.hu",
    "image": "images/flowBoulder.jpg",
    "difficulty": "V0–V7"
  },
  {
    "name": "MŰFAL",
    "lat": 47.47958,
    "lng": 19.05746,
    "type": "gym",
    "description": "Budapest's oldest rope climbing gym with boulder wall too, located at BME Sportközpont since 2012.",
    "address": "1111 Budapest, Műegyetem rkp. 3. (BME Sportközpont)",
    "website": "https://www.mufal.hu",
    "image": "images/mufal.jpg",
    "difficulty": "4a–7c"
  },
  {
    "name": "IBEX Sport Győr",
    "lat": 47.68666,
    "lng": 17.66291,
    "type": "gym",
    "description": "Largest climbing gym in Transdanubia with 750 m² and 500 m² of climbing surface.",
    "address": "9027 Győr, Puskás Tivadar u. 8.",
    "website": "https://ibexsport.hu",
    "image": "images/ibex.jpg",
    "difficulty": "4a–8a"
  },
  {
    "name": "BETA Climbing Pécs",
    "lat": 46.07664,
    "lng": 18.23755,
    "type": "gym",
    "description": "Largest climbing gym in South Transdanubia with top rope and bouldering walls.",
    "address": "7626 Pécs, Búza tér 6/b (Pécsi Sasok Mozgásközpont)",
    "website": "https://www.falmaszaspecs.hu",
    "image": "images/beta.jpg",
    "difficulty": "4a–7b+"
  },
  {
    "name": "Factory Aréna Miskolc",
    "lat": 48.09478,
    "lng": 20.73102,
    "type": "gym",
    "description": "Hungary's 2nd largest indoor climbing hall with 400 m² walls, 10m high, with bouldering area.",
    "address": "Miskolc, Ó-gyár tér 1.",
    "website": "https://factoryarena.hu",
    "image": "images/factoryArena.jpg",
    "difficulty": "4a–7c"
  },
  {
    "name": "Torony Climbing Gym",
    "lat": 47.68612,
    "lng": 17.65903,
    "type": "gym",
    "description": "Győr's first rope climbing gym, opened in 2025 with modern climbing walls for all levels.",
    "address": "9028 Győr, Bútorgyári utca 5.",
    "website": "https://toronyclimbing.hu",
    "image": "images/toronyClimbing.jpg",
    "difficulty": "4a–7b"
  },
  {
    "name": "Climberry Boulder",
    "lat": 47.47858,
    "lng": 19.02895,
    "type": "gym",
    "description": "Child development climbing center focused on skill-building through bouldering.",
    "address": "1112 Budapest, Bocskai út 77-79.",
    "website": "https://climberry.hu",
    "image": "images/climberry.jpg",
    "difficulty": "V0–V5"
  },
  {
    "name": "MAG47 Climb & Cafe",
    "lat": 47.48214,
    "lng": 19.15681,
    "type": "gym",
    "description": "Hungary's largest climbing facility (2300 m²) with 17m walls, lead, boulder, and speed climbing.",
    "address": "1106 Budapest, Kada utca 144.",
    "website": "https://mag47.hu",
    "image": "images/mag47.jpg",
    "difficulty": "4a–8b"
  },
  {
    "name": "Veszprém University Climbing Club",
    "lat": 47.08861,
    "lng": 17.90806,
    "type": "gym",
    "description": "Climbing gym at the Pannon University with rope and bouldering routes.",
    "address": "8200 Veszprém, Egyetem utca 10.",
    "website": "https://sportkozpont.uni-pannon.hu/veszpremi-egyetemi-sport-club-edzesei/falmaszas",
    "image": "images/veszpremBoulder.jpg",
    "difficulty": "4a–7a"
  },
  {
    "name": "UniFit Boulder Debrecen",
    "lat": 47.5539,
    "lng": 21.6333,
    "type": "gym",
    "description": "250 m² bouldering gym inside the UniFit fitness center at Nagyerdei Stadium.",
    "address": "4032 Debrecen, Nagyerdei park 12.",
    "website": "https://www.stadionunifit.hu",
    "image": "images/unifit.jpg",
    "difficulty": "V0–V6"
  },
  {
    "name": "Oroszlán-sziklák",
    "lat": 47.5426,
    "lng": 18.9897,
    "type": "boulder",
    "description": "Natural limestone boulders on Kecske-hegy's south side with 68+ problems from easy to highball. Known as Lion Boulders.",
    "address": "Budapest II., Kecske-hegy",
    "website": "https://www.thecrag.com/en/climbing/hungary/budapest/area/4701577743",
    "image": "images/oroszlan-sziklak.jpg",
    "difficulty": "V0–V8"
  },
  {
    "name": "Tündér-szikla / Manóvár",
    "lat": 47.4949,
    "lng": 19.0283,
    "type": "boulder",
    "description": "Dolomite boulders near Tündér-hegy peak with problems graded VII+ to X- (UIAA). Popular secluded spot.",
    "address": "Budapest XII., Zugliget",
    "website": "https://www.mountainproject.com/area/106756120/tunder-szikla",
    "image": "images/tunder-szikla.jpg",
    "difficulty": "VII–X (UIAA)"
  },
  {
    "name": "Róka-hegyi kőfejtő",
    "lat": 47.58,
    "lng": 19.015,
    "type": "wall",
    "description": "Popular climbing crag in a former quarry in Budapest with many sport routes across various grades.",
    "address": "Budapest III., Róka-hegy",
    "website": "https://www.thecrag.com/en/climbing/hungary/budapest/area/289254495",
    "image": "images/roka-hegy.jpg",
    "difficulty": "4a–8a+"
  },
  {
    "name": "Kecske-hegyi kőfejtő",
    "lat": 47.543,
    "lng": 18.9916,
    "type": "wall",
    "description": "Historic climbing quarry where Hungarian sport climbing was born in the 1980s. Overhanging routes up to grade 10.",
    "address": "Budapest II., Kecske-hegy",
    "website": "https://www.thecrag.com/en/climbing/hungary/budapest/area/1833605622",
    "image": "images/kecske-hegy.jpg",
    "difficulty": "5–8b+"
  },
  {
    "name": "Bajót (Nagy-fal)",
    "lat": 47.726,
    "lng": 18.375,
    "type": "wall",
    "description": "Major climbing area in Gerecse with many sport routes on limestone. Includes Nagy-fal, Hátsó-fal, and Szívek-fala.",
    "address": "Bajót, Gerecse Mountains",
    "website": "https://www.thecrag.com/en/climbing/hungary/area/1833613734",
    "image": "images/bajot.jpg",
    "difficulty": "5–8a+"
  },
  {
    "name": "Kis-Gerecsei kőfejtő",
    "lat": 47.7,
    "lng": 18.4,
    "type": "wall",
    "description": "Quarry crag in Gerecse with a variety of sport climbing routes.",
    "address": "Kis-Gerecse, Gerecse Mountains",
    "website": "",
    "image": "images/kis-gerecse.jpg",
    "difficulty": "5–7c"
  },
  {
    "name": "Cuha-völgy",
    "lat": 47.311,
    "lng": 17.9275,
    "type": "wall",
    "description": "Scenic climbing valley in Bakony with multiple crags and sport routes in a forested gorge.",
    "address": "Cuha-völgy, Bakony Mountains",
    "website": "https://www.thecrag.com/en/climbing/hungary/kisgerecse",
    "image": "images/cuha-volgy.jpg",
    "difficulty": "4–7b+"
  },
  {
    "name": "Bajdázói-kőfejtő (Királyrét)",
    "lat": 47.905,
    "lng": 18.99,
    "type": "wall",
    "description": "Hungary's newest climbing crag (2020) in Börzsöny with 10–13m volcanic tuff walls in vibrant yellow-red colors.",
    "address": "Királyrét, Börzsöny Mountains",
    "website": "https://www.thecrag.com/en/climbing/hungary/area/4059042168",
    "image": "images/bajadzo.jpg",
    "difficulty": "5–7c"
  },
  {
    "name": "Bárány-kő",
    "lat": 47.88,
    "lng": 19.95,
    "type": "wall",
    "description": "Andesite crag in Mátra known for its scenic towers and sport routes.",
    "address": "Mátra Mountains",
    "website": "https://www.thecrag.com/en/climbing/hungary/matrakeresztes/area/12542179",
    "image": "images/baragnyko.jpg",
    "difficulty": "5–7c"
  },
  {
    "name": "Dédesi Kisvár",
    "lat": 48.17,
    "lng": 20.48,
    "type": "wall",
    "description": "Limestone crag in Bükk with sport climbing routes in a remote forest setting.",
    "address": "Dédes, Bükk Mountains",
    "website": "https://www.thecrag.com/en/climbing/hungary/area/2719057377",
    "image": "images/dedes.jpg",
    "difficulty": "5–7b+"
  },
  {
    "name": "Hámor (Nagy-fal & Kis-fal)",
    "lat": 48.097,
    "lng": 20.644,
    "type": "wall",
    "description": "Major Bükk climbing area with two main walls. Nagy-fal is a large overhanging cliff, Kis-fal offers easier routes.",
    "address": "Hámor, Bükk Mountains",
    "website": "https://www.thecrag.com/en/climbing/hungary/area/2719068561",
    "image": "images/hamor.jpg",
    "difficulty": "5–8a"
  },
  {
    "name": "Örvény-kő",
    "lat": 48.1,
    "lng": 20.65,
    "type": "wall",
    "description": "Limestone crag in the Bükk with technical climbing on good rock.",
    "address": "Bükk Mountains",
    "website": "https://www.thecrag.com/en/climbing/hungary/area/2719083714",
    "image": "images/orveny-ko.jpg",
    "difficulty": "5–7c+"
  },
  {
    "name": "Köpüs-kő",
    "lat": 48.115,
    "lng": 20.63,
    "type": "wall",
    "description": "Protected climbing park in Bükk with massive overhanging limestone conglomerate walls (climbing only Nov–Jan).",
    "address": "Bükk Mountains",
    "website": "https://www.thecrag.com/en/climbing/hungary/area/1834149810",
    "image": "images/kopus-ko.jpg",
    "difficulty": "5–8a"
  },
  {
    "name": "Sólyom-kő",
    "lat": 48.49,
    "lng": 21.43,
    "type": "wall",
    "description": "Andesite crag in Zemplén with beautiful tower formations and sport routes.",
    "address": "Zemplén Mountains",
    "website": "https://www.thecrag.com/en/climbing/hungary/s-lyom-ko",
    "image": "images/solyom-ko.jpg",
    "difficulty": "5–7c"
  },
  {
    "name": "Várgesztes",
    "lat": 47.475,
    "lng": 18.39,
    "type": "wall",
    "description": "Popular Vértes climbing crag under castle ruins with multiple sport routes.",
    "address": "Várgesztes, Vértes Mountains",
    "website": "https://www.thecrag.com/en/climbing/hungary/area/1830791037",
    "image": "images/vargesztes.jpg",
    "difficulty": "5–7c+"
  },
  {
    "name": "Turul-sziklák",
    "lat": 47.7,
    "lng": 18.36,
    "type": "wall",
    "description": "Limestone crags in Gerecse with scenic views and sport climbing routes.",
    "address": "Gerecse Mountains",
    "website": "https://www.thecrag.com/en/climbing/hungary/area/1834124139",
    "image": "images/turu-szikla.jpg",
    "difficulty": "5–7b+"
  },
  {
    "name": "Tardosbánya",
    "lat": 47.66,
    "lng": 18.42,
    "type": "wall",
    "description": "Limestone quarry crag in Gerecse with a wide variety of sport routes.",
    "address": "Tardos, Gerecse Mountains",
    "website": "https://www.thecrag.com/en/climbing/hungary/tardos",
    "image": "images/tardosbanya.jpg",
    "difficulty": "5–8a"
  },
  {
    "name": "Pázmándi-sziklák",
    "lat": 47.29,
    "lng": 18.66,
    "type": "wall",
    "description": "Granite-like climbing crags in the Velence Hills with bouldering and sport routes.",
    "address": "Pázmánd, Velencei-hegység",
    "website": "https://www.thecrag.com/en/climbing/hungary/area/7247203905",
    "image": "images/pazmandi.jpg",
    "difficulty": "4–7a"
  },
  {
    "name": "Oszoly (Csobánka)",
    "lat": 47.64,
    "lng": 18.96,
    "type": "wall",
    "description": "Limestone crag in Pilis with many sport routes, popular for its proximity to Budapest.",
    "address": "Csobánka, Pilis Mountains",
    "website": "https://www.thecrag.com/en/climbing/hungary/oszoly",
    "image": "images/oszoly.jpg",
    "difficulty": "5–7c+"
  },
  {
    "name": "Betekints-völgy",
    "lat": 47.245,
    "lng": 17.86,
    "type": "wall",
    "description": "Bakony valley crag with sport routes in a quiet forested area.",
    "address": "Betekints-völgy, Bakony Mountains",
    "website": "https://www.thecrag.com/en/climbing/hungary/area/1834136868",
    "image": "images/betekints-volgy.jpg",
    "difficulty": "4–7a"
  },
  {
    "name": "Felsőtárkány",
    "lat": 47.975,
    "lng": 20.42,
    "type": "wall",
    "description": "Bükk climbing area with routes on limestone in a scenic valley setting.",
    "address": "Felsőtárkány, Bükk Mountains",
    "website": "https://www.thecrag.com/en/climbing/hungary/area/2719078437",
    "image": "images/Felsotarkany.jpg",
    "difficulty": "5–7c"
  },
  {
    "name": "Csókakő",
    "lat": 47.365,
    "lng": 18.215,
    "type": "wall",
    "description": "Climbing crag near Csókakő castle ruins in the Vértes with sport routes.",
    "address": "Csókakő, Vértes Mountains",
    "website": "https://www.thecrag.com/en/climbing/hungary/s-lyom-k-337",
    "image": "images/csokako.jpg",
    "difficulty": "5–7b+"
  },
  {
    "name": "Balatonederics",
    "lat": 46.795,
    "lng": 17.38,
    "type": "wall",
    "description": "Limestone crag overlooking Lake Balaton with sport climbing routes.",
    "address": "Balatonederics, Balaton-felvidék",
    "website": "https://www.thecrag.com/en/climbing/hungary/area/3595649268",
    "image": "images/balatonderics.jpg",
    "difficulty": "5–7c"
  }
]
